{
  "modified_gmt": "2026-05-10T08:55:39",
  "source": "https://zavrnirukave.rs/wp-json/wp/v2/pages?slug=prijavljene-lokacije",
  "count": 295,
  "locations": [
    {
      "r": "Beograd",
      "lat": 44.799722,
      "lon": 20.387361,
      "name": "Blok 44",
      "city": "Novi Beograd",
      "leader": "Srećko Ćirić",
      "team": "Za zeleniji i uredjeniji Blok 44"
    },
    {
      "r": "Beograd",
      "lat": 44.788583,
      "lon": 20.516806,
      "name": "Stara Okretnica – Zvezdara",
      "city": "Beograd",
      "leader": "Borjana Tasić",
      "team": "Borjana Tasić"
    },
    {
      "r": "Beograd",
      "lat": 44.776583,
      "lon": 20.498194,
      "name": "Medak",
      "city": "Voždovac",
      "leader": "Luka Jovanovic",
      "team": "Luka Jovanovic"
    },
    {
      "r": "Beograd",
      "lat": 44.806139,
      "lon": 20.388167,
      "name": "Blok 64 Jug",
      "city": "Novi Beograd",
      "leader": "Aljoša Marković",
      "team": "Aljoša Marković"
    },
    {
      "r": "Beograd",
      "lat": 44.801333,
      "lon": 20.479444,
      "name": "Crveni Park Hadzi Ruvimova",
      "city": "Zvezdara",
      "leader": "Jovan Milosevic",
      "team": ""
    },
    {
      "r": "Beograd",
      "lat": 44.812,
      "lon": 20.371667,
      "name": "Bežanijska kosa",
      "city": "Novi Beograd",
      "leader": "Bojana Ranđelović",
      "team": ""
    },
    {
      "r": "Beograd",
      "lat": 44.789361,
      "lon": 20.525917,
      "name": "Mirijevo – Park Udovica",
      "city": "Zvezdara",
      "leader": "Maja Čubranović",
      "team": ""
    },
    {
      "r": "Beograd",
      "lat": 44.825639,
      "lon": 20.411972,
      "name": "Fontana",
      "city": "Novi Beograd",
      "leader": "Ivana Živković",
      "team": ""
    },
    {
      "r": "Beograd",
      "lat": 44.818889,
      "lon": 20.42125,
      "name": "Blok 30",
      "city": "Novi Beograd",
      "leader": "Nemanja Stojković",
      "team": ""
    },
    {
      "r": "Beograd",
      "lat": 44.886611,
      "lon": 20.454444,
      "name": "Borča",
      "city": "Beograd",
      "leader": "Ana Mladenović",
      "team": ""
    },
    {
      "r": "Beograd",
      "lat": 44.819111,
      "lon": 20.4785,
      "name": "Dunav stanica",
      "city": "Beograd",
      "leader": "Ivan Đorđević",
      "team": ""
    },
    {
      "r": "Beograd",
      "lat": 44.803361,
      "lon": 20.375889,
      "name": "Blok 62 – Park Republike Argentine",
      "city": "Novi Beograd",
      "leader": "Strahinja MIlovic",
      "team": ""
    },
    {
      "r": "Beograd",
      "lat": 44.82625,
      "lon": 20.464111,
      "name": "Fontana u Mike Alasa",
      "city": "Beograd",
      "leader": "Branka Perović",
      "team": ""
    },
    {
      "r": "Beograd",
      "lat": 44.808083,
      "lon": 20.386472,
      "name": "Immo Centar",
      "city": "Novi Beograd",
      "leader": "Elena Vranic",
      "team": ""
    },
    {
      "r": "Beograd",
      "lat": 44.798778,
      "lon": 20.481194,
      "name": "Plato kod Milesevske",
      "city": "Vracar",
      "leader": "Tamara Matić",
      "team": ""
    },
    {
      "r": "Beograd",
      "lat": 44.802667,
      "lon": 20.368861,
      "name": "Park „Kec“ Blok 61",
      "city": "Novi Beograd",
      "leader": "Aleksa Vuković",
      "team": ""
    },
    {
      "r": "Beograd",
      "lat": 44.829472,
      "lon": 20.462889,
      "name": "Dunavski Kej – Beograd",
      "city": "Beograd",
      "leader": "Sonja Đokić",
      "team": ""
    },
    {
      "r": "Beograd",
      "lat": 44.810583,
      "lon": 20.419417,
      "name": "Blok 24",
      "city": "Novi Beograd",
      "leader": "Andrej Dimitrijevic",
      "team": ""
    },
    {
      "r": "Beograd",
      "lat": 44.788222,
      "lon": 20.529472,
      "name": "Stojcino Brdo – Plato kod broja 9",
      "city": "Mirijevo",
      "leader": "Marina Pajkić",
      "team": ""
    },
    {
      "r": "Beograd",
      "lat": 44.751852,
      "lon": 20.480139,
      "name": "Banjica 2 – Okretnica",
      "city": "Banjica",
      "leader": "Lena Gorshkova",
      "team": ""
    },
    {
      "r": "Beograd",
      "lat": 44.379389,
      "lon": 20.249778,
      "name": "Treca Mesna",
      "city": "Lazarevac",
      "leader": "Zoran Grujić",
      "team": ""
    },
    {
      "r": "Beograd",
      "lat": 44.814806,
      "lon": 20.444056,
      "name": "Park Ušće",
      "city": "Novi Beograd",
      "leader": "Ivan Pezikov",
      "team": ""
    },
    {
      "r": "Beograd",
      "lat": 44.830167,
      "lon": 20.414444,
      "name": "Blok 11c",
      "city": "Novi Beograd",
      "leader": "Marija Bežulj",
      "team": ""
    },
    {
      "r": "Beograd",
      "lat": 44.811333,
      "lon": 20.368972,
      "name": "Parkić od gume",
      "city": "Novi Beograd",
      "leader": "Tanja Spasenovski",
      "team": ""
    },
    {
      "r": "Beograd",
      "lat": 44.803472,
      "lon": 20.371472,
      "name": "Pasarela – Blok 61",
      "city": "Novi Beograd",
      "leader": "Srdan Vlahovic",
      "team": ""
    },
    {
      "r": "Beograd",
      "lat": 44.795167,
      "lon": 20.502556,
      "name": "Sportski kompleks „Šljunkara“",
      "city": "Zvezdara",
      "leader": "Zbor gradjana MZ Zvezdara i MZ Slavujev potok",
      "team": ""
    },
    {
      "r": "Beograd",
      "lat": 44.783722,
      "lon": 20.489417,
      "name": "Igraliste za Decu",
      "city": "Vozdovac",
      "leader": "Nadia K",
      "team": ""
    },
    {
      "r": "Beograd",
      "lat": 44.813444,
      "lon": 20.431722,
      "name": "Blok 21",
      "city": "Novi Beograd",
      "leader": "Luka Stanković",
      "team": ""
    },
    {
      "r": "Beograd",
      "lat": 44.784306,
      "lon": 20.512417,
      "name": "Park Istocna Kapija",
      "city": "Konjarnik",
      "leader": "Goran Šećerović",
      "team": ""
    },
    {
      "r": "Beograd",
      "lat": 44.728667,
      "lon": 20.37625,
      "name": "Zeleznik",
      "city": "Zeleznik",
      "leader": "Milica Lukić",
      "team": ""
    },
    {
      "r": "Beograd",
      "lat": 44.759972,
      "lon": 20.415806,
      "name": "Zarkovo",
      "city": "Zarkovo",
      "leader": "Olgica Ilic",
      "team": "Zbor Zarkovo"
    },
    {
      "r": "Beograd",
      "lat": 44.792639,
      "lon": 20.494444,
      "name": "Park Donji Krug",
      "city": "Vracar",
      "leader": "Jelena Nikić",
      "team": ""
    },
    {
      "r": "Beograd",
      "lat": 44.82075,
      "lon": 20.373972,
      "name": "Bezanija – Marka Celebonovica",
      "city": "Novi Beograd",
      "leader": "Ivana Bondžić",
      "team": ""
    },
    {
      "r": "Beograd",
      "lat": 44.810917,
      "lon": 20.514444,
      "name": "OŠ Stevan Đukić",
      "city": "Karaburma",
      "leader": "Aleksandra Zirojevic",
      "team": ""
    },
    {
      "r": "Beograd",
      "lat": 44.847389,
      "lon": 20.382111,
      "name": "Park „Milan Tepic“",
      "city": "Zemun",
      "leader": "Dragana Stanić",
      "team": ""
    },
    {
      "r": "Beograd",
      "lat": 44.669389,
      "lon": 20.495444,
      "name": "FK Minel Ripanj",
      "city": "Ripanj",
      "leader": "Goran Jeremić",
      "team": "Moje Naselje Ripanj"
    },
    {
      "r": "Beograd",
      "lat": 44.792111,
      "lon": 20.493417,
      "name": "Tome Maksimovica",
      "city": "Vracar",
      "leader": "Sofia Japrinceva",
      "team": ""
    },
    {
      "r": "Beograd",
      "lat": 44.750611,
      "lon": 20.480528,
      "name": "Paunov Breg",
      "city": "Voždovac",
      "leader": "Ivana Pavlov",
      "team": ""
    },
    {
      "r": "Beograd",
      "lat": 44.803667,
      "lon": 20.466667,
      "name": "Mitićeva rupa i Park Manjež",
      "city": "Vračar",
      "leader": "Bojana Zugic",
      "team": ""
    },
    {
      "r": "Beograd",
      "lat": 44.727139,
      "lon": 20.423361,
      "name": "Labudovo Brdo",
      "city": "Rakovica",
      "leader": "Višnja Blažin",
      "team": ""
    },
    {
      "r": "Beograd",
      "lat": 44.798028,
      "lon": 20.400417,
      "name": "Okretnica blok 70a",
      "city": "Novi Beograd",
      "leader": "Aleksandra Stanic",
      "team": "Zajednicka akcija blok 70 i 70a"
    },
    {
      "r": "Beograd",
      "lat": 44.819139,
      "lon": 20.47625,
      "name": "OŠ „Vlada Aksentijević“",
      "city": "Palilula",
      "leader": "Marija Tešanović",
      "team": ""
    },
    {
      "r": "Beograd",
      "lat": 44.774472,
      "lon": 20.501528,
      "name": "Park Medakovic",
      "city": "Medak",
      "leader": "Nada Jovanov",
      "team": ""
    },
    {
      "r": "Beograd",
      "lat": 44.846889,
      "lon": 20.461389,
      "name": "Jojkicev Dunavac",
      "city": "Kotež",
      "leader": "Nada Acimovic",
      "team": ""
    },
    {
      "r": "Beograd",
      "lat": 44.386194,
      "lon": 20.252611,
      "name": "Stop Shop",
      "city": "Lazarevac",
      "leader": "Rada Grozdranić",
      "team": ""
    },
    {
      "r": "Beograd",
      "lat": 44.750778,
      "lon": 20.418722,
      "name": "Park Stari Cerak",
      "city": "Cerak",
      "leader": "Danica Milović",
      "team": ""
    },
    {
      "r": "Beograd",
      "lat": 44.75075,
      "lon": 20.447,
      "name": "Patrijarha Dimitrija- Vareška",
      "city": "Miljakovac",
      "leader": "Marija Kralj",
      "team": ""
    },
    {
      "r": "Beograd",
      "lat": 44.472111,
      "lon": 20.577139,
      "name": "KoZmaj Fest",
      "city": "Sopot",
      "leader": "Slobodan Vukašinović",
      "team": ""
    },
    {
      "r": "Beograd",
      "lat": 44.746472,
      "lon": 20.427583,
      "name": "VMC Cerak",
      "city": "Cerak – Vinogradi",
      "leader": "Đorđe Marković",
      "team": ""
    },
    {
      "r": "Beograd",
      "lat": 44.797222,
      "lon": 20.475833,
      "name": "Čuburski park",
      "city": "Vračar",
      "leader": "Bogdana Mitrić",
      "team": ""
    },
    {
      "r": "Beograd",
      "lat": 44.753139,
      "lon": 20.452306,
      "name": "Kanarevo Brdo",
      "city": "Rakovica",
      "leader": "Jelena Krnjeta",
      "team": ""
    },
    {
      "r": "Beograd",
      "lat": 44.83225,
      "lon": 20.414639,
      "name": "Blok 9A",
      "city": "Novi Beograd",
      "leader": "Ognjen Grubač",
      "team": ""
    },
    {
      "r": "Beograd",
      "lat": 44.792639,
      "lon": 20.4945,
      "name": "Park Donji Krug",
      "city": "Vračar",
      "leader": "Miroslav Dimitrijevic",
      "team": ""
    },
    {
      "r": "Beograd",
      "lat": 44.828833,
      "lon": 20.402222,
      "name": "Pariske Komune",
      "city": "Novi Beograd",
      "leader": "Mirjana Vukasović",
      "team": ""
    },
    {
      "r": "Beograd",
      "lat": 44.830278,
      "lon": 20.404556,
      "name": "Marsala Tolbuhina",
      "city": "Novi Beograd",
      "leader": "Marija Ljujić Božović",
      "team": ""
    },
    {
      "r": "Beograd",
      "lat": 44.796861,
      "lon": 20.377333,
      "name": "Blok 45 – Kod Pevca",
      "city": "Novi Beograd",
      "leader": "Aleksandar Nojic",
      "team": ""
    },
    {
      "r": "Beograd",
      "lat": 44.796556,
      "lon": 20.377806,
      "name": "Blok 45 – Kafe Kafica",
      "city": "Novi Beograd",
      "leader": "Slobodan Smiljanic",
      "team": "Plogging Serbia"
    },
    {
      "r": "Beograd",
      "lat": 44.793167,
      "lon": 20.375722,
      "name": "Blok 45 – Decije Igraliste",
      "city": "Novi Beograd",
      "leader": "Tara Jovanović",
      "team": ""
    },
    {
      "r": "Beograd",
      "lat": 44.798175,
      "lon": 20.413258,
      "name": "Savski Nasip",
      "city": "Novi Beograd",
      "leader": "Predrag Rmuš",
      "team": ""
    },
    {
      "r": "Beograd",
      "lat": 44.808194,
      "lon": 20.424806,
      "name": "Blok 23 – O.Š. „Laza Kostić“",
      "city": "Novi Beograd",
      "leader": "Lana Lazarević",
      "team": "OI „Munje“"
    },
    {
      "r": "Beograd",
      "lat": 44.659417,
      "lon": 20.227333,
      "name": "Trim Staza Zabran",
      "city": "Obrenovac",
      "leader": "Jelena Vuković Mićić",
      "team": ""
    },
    {
      "r": "Beograd",
      "lat": 44.816306,
      "lon": 20.429,
      "name": "Blok 21",
      "city": "Novi Beograd",
      "leader": "Stefan Knezevic",
      "team": ""
    },
    {
      "r": "Beograd",
      "lat": 44.764583,
      "lon": 20.556833,
      "name": "Kaludjerica – O.Š. „Aleksa Šantić“",
      "city": "Kaluđerica",
      "leader": "Milica Denić",
      "team": ""
    },
    {
      "r": "Beograd",
      "lat": 44.807306,
      "lon": 20.469583,
      "name": "Plato pozorišta Dadov",
      "city": "Vračar",
      "leader": "Milan Bačkulja",
      "team": ""
    },
    {
      "r": "Beograd",
      "lat": 44.765417,
      "lon": 20.416861,
      "name": "Repište – Banovo Brdo",
      "city": "Beograd",
      "leader": "Marija Milic",
      "team": ""
    },
    {
      "r": "Beograd",
      "lat": 44.815444,
      "lon": 20.429417,
      "name": "Blok 21 – X Gimnazija",
      "city": "Novi Beograd",
      "leader": "Ružica Janjić",
      "team": ""
    },
    {
      "r": "Beograd",
      "lat": 44.821806,
      "lon": 20.407028,
      "name": "Vrtić „Poletarac“",
      "city": "Novi Beograd",
      "leader": "Boris Skender",
      "team": ""
    },
    {
      "r": "Beograd",
      "lat": 44.790444,
      "lon": 20.529861,
      "name": "Mirijevsko šetalište – Stazice",
      "city": "Mirijevo",
      "leader": "Đorđe Lukić",
      "team": ""
    },
    {
      "r": "Beograd",
      "lat": 44.770694,
      "lon": 20.478667,
      "name": "Vojvode Stepe – Parking iza Vera",
      "city": "Voždovac",
      "leader": "Filip Tomasevic",
      "team": ""
    },
    {
      "r": "Beograd",
      "lat": 44.829139,
      "lon": 20.401222,
      "name": "Blok 4 – Park",
      "city": "Novi Beograd",
      "leader": "Mirjana Vukasović",
      "team": ""
    },
    {
      "r": "Beograd",
      "lat": 44.803583,
      "lon": 20.383583,
      "name": "Blok 63 – Park 4 koša",
      "city": "Novi Beograd",
      "leader": "Isidora Jovanovic",
      "team": ""
    },
    {
      "r": "Beograd",
      "lat": 44.816944,
      "lon": 20.404833,
      "name": "Blok 38",
      "city": "Novi Beograd",
      "leader": "Mihailo Hranjec",
      "team": ""
    },
    {
      "r": "Beograd",
      "lat": 44.792444,
      "lon": 20.374389,
      "name": "Blok 71 – Okretnica",
      "city": "Novi Beograd",
      "leader": "Marko Milic",
      "team": ""
    },
    {
      "r": "Beograd",
      "lat": 44.837028,
      "lon": 20.383417,
      "name": "Ugao Hercegovačka – Železnička",
      "city": "Zemun",
      "leader": "Marija Šipka Pavlović",
      "team": ""
    },
    {
      "r": "Beograd",
      "lat": 44.781889,
      "lon": 20.507722,
      "name": "Ustanička – Maxi",
      "city": "Konjarnik",
      "leader": "Katarina Pavlović",
      "team": ""
    },
    {
      "r": "Beograd",
      "lat": 44.840694,
      "lon": 20.394194,
      "name": "Kalvarija",
      "city": "Zemun",
      "leader": "Milica Rodaljević",
      "team": ""
    },
    {
      "r": "Beograd",
      "lat": 44.768611,
      "lon": 20.410444,
      "name": "Julino Brdo – Poručnika Spasića i Mašere",
      "city": "Čukarica",
      "leader": "Irena",
      "team": ""
    },
    {
      "r": "Beograd",
      "lat": 44.775278,
      "lon": 20.504111,
      "name": "Borivoja Stevanovića, paralelno sa Mokroluškom",
      "city": "Voždovac",
      "leader": "Miloš Stanković",
      "team": "MDK3"
    },
    {
      "r": "Beograd",
      "lat": 44.838861,
      "lon": 20.495611,
      "name": "Petlja Pančevački most -Krnjača / Beograd",
      "city": "Krnjača",
      "leader": "Milan Stojković",
      "team": "Zbor Krnjača"
    },
    {
      "r": "Beograd",
      "lat": 44.809722,
      "lon": 20.386111,
      "name": "Blok 64 – Zapad",
      "city": "Novi Beograd",
      "leader": "Jelena Krimer",
      "team": ""
    },
    {
      "r": "Beograd",
      "lat": 44.819417,
      "lon": 20.399944,
      "name": "Blok 37 – O.Š. „Đuro Strugar“",
      "city": "Novi Beograd",
      "leader": "Novica Jovović",
      "team": ""
    },
    {
      "r": "Beograd",
      "lat": 44.819111,
      "lon": 20.410972,
      "name": "Blok 32",
      "city": "Novi Beograd",
      "leader": "Bojana Obradović",
      "team": ""
    },
    {
      "r": "Beograd",
      "lat": 44.793861,
      "lon": 20.481194,
      "name": "Park Koče Andjelkovica",
      "city": "Vračar",
      "leader": "Zeljko Bozic",
      "team": ""
    },
    {
      "r": "Beograd",
      "lat": 44.830778,
      "lon": 20.458,
      "name": "Dunavski Kej",
      "city": "Beograd",
      "leader": "Sofia Jakovljevic",
      "team": ""
    },
    {
      "r": "Beograd",
      "lat": 44.804167,
      "lon": 20.50775,
      "name": "Dečiji vrtić „Zvezdani gaj“",
      "city": "Zvezdara",
      "leader": "Jelena Kovačević",
      "team": ""
    },
    {
      "r": "Beograd",
      "lat": 44.756444,
      "lon": 20.4565,
      "name": "Košarkaški teren Kosta Vasić",
      "city": "Miljakovac",
      "leader": "Isidora Kosić",
      "team": ""
    },
    {
      "r": "Beograd",
      "lat": 44.829472,
      "lon": 20.462889,
      "name": "Dunasvki Kej",
      "city": "Dorćol",
      "leader": "Ida Jankes",
      "team": ""
    },
    {
      "r": "Beograd",
      "lat": 44.801444,
      "lon": 20.401639,
      "name": "Blok 70a – Dečije igralište",
      "city": "Novi Beograd",
      "leader": "Zeljko Latas",
      "team": "Zajednička akcija blok 70 i 70a"
    },
    {
      "r": "Beograd",
      "lat": 44.822472,
      "lon": 20.391667,
      "name": "Bežanijska kosa – tereni kod FK „11. April“",
      "city": "Novi Beograd",
      "leader": "Lana Čorak",
      "team": ""
    },
    {
      "r": "Beograd",
      "lat": 44.7555,
      "lon": 20.451972,
      "name": "Stari Košutnjak – Mihajla Stanojevica 44",
      "city": "Košutnjak",
      "leader": "Zorana Bošnjaković",
      "team": ""
    },
    {
      "r": "Beograd",
      "lat": 44.759972,
      "lon": 20.415806,
      "name": "Park između Repišske i Trgovačke",
      "city": "Žarkovo",
      "leader": "Sonja B",
      "team": ""
    },
    {
      "r": "Beograd",
      "lat": 44.655167,
      "lon": 20.109361,
      "name": "Trim Staza – Spomenik Borcima",
      "city": "Obrenovac",
      "leader": "Jelena Vuković",
      "team": ""
    },
    {
      "r": "Beograd",
      "lat": 44.826417,
      "lon": 20.410667,
      "name": "Blok 2 – Park iza Srednje Turističke škole",
      "city": "Novi Beograd",
      "leader": "Natalija Marjanovic",
      "team": ""
    },
    {
      "r": "Beograd",
      "lat": 44.803361,
      "lon": 20.375889,
      "name": "Blok 62 – Park Republike Argentine",
      "city": "Novi Beograd",
      "leader": "Nemanja Nikolic",
      "team": ""
    },
    {
      "r": "Beograd",
      "lat": 44.769778,
      "lon": 20.489583,
      "name": "Park Milunke Savić",
      "city": "Voždovac",
      "leader": "Marija",
      "team": "Zbor naselja Braće Jerković"
    },
    {
      "r": "Beograd",
      "lat": 44.853472,
      "lon": 20.400167,
      "name": "Dunavska ulica – Do obale Dunava",
      "city": "Zemun",
      "leader": "Natalia Shmeleva",
      "team": ""
    },
    {
      "r": "Beograd",
      "lat": 44.920139,
      "lon": 20.319722,
      "name": "Put za obalu Dunava",
      "city": "Batajnica",
      "leader": "Milan Ljutovac",
      "team": ""
    },
    {
      "r": "Beograd",
      "lat": 44.787333,
      "lon": 20.489806,
      "name": "Šumice – Sundečićeva",
      "city": "Konjarnik",
      "leader": "Dunja Šiljić",
      "team": ""
    },
    {
      "r": "Beograd",
      "lat": 44.772778,
      "lon": 20.475222,
      "name": "FON – Košarkaški teren",
      "city": "Voždovac",
      "leader": "Mina Ivosevic",
      "team": ""
    },
    {
      "r": "Beograd",
      "lat": 44.684972,
      "lon": 20.202639,
      "name": "Obrenovac – Zabrežje",
      "city": "Obrenovac",
      "leader": "Milan Jerković",
      "team": "Zbor građana Obrenovca"
    },
    {
      "r": "Beograd",
      "lat": 44.798167,
      "lon": 20.413694,
      "name": "Savski Nasip",
      "city": "Novi Beograd",
      "leader": "Предраг Рмуш",
      "team": "Удружење љубитеља и поштовалаца реке Саве САВКА"
    },
    {
      "r": "Beograd",
      "lat": 44.812472,
      "lon": 20.411444,
      "name": "Blok 28",
      "city": "Novi Beograd",
      "leader": "Bojan Džukovski",
      "team": ""
    },
    {
      "r": "Beograd",
      "lat": 44.85525,
      "lon": 20.159,
      "name": "Nova 14",
      "city": "Ugrinovci",
      "leader": "Marija Baljak",
      "team": ""
    },
    {
      "r": "Beograd",
      "lat": 44.432944,
      "lon": 20.697944,
      "name": "Spomen Park Crkvenac",
      "city": "Mladenovac",
      "leader": "Aleksa Ružić",
      "team": ""
    },
    {
      "r": "Beograd",
      "lat": 44.696167,
      "lon": 20.504611,
      "name": "Šumska Uprava Avala",
      "city": "Avala",
      "leader": "Ivana Marić",
      "team": "Zbor podavalskih naselja"
    },
    {
      "r": "Beograd",
      "lat": 44.804333,
      "lon": 20.483611,
      "name": "Igralište Bubamara",
      "city": "Zvezdara",
      "leader": "Mrki",
      "team": "Zbor 4MZ Zvezdara"
    },
    {
      "r": "Beograd",
      "lat": 44.819111,
      "lon": 20.476278,
      "name": "O.Š. „Vlada Aksentijević“",
      "city": "Palilula",
      "leader": "Stefan Dželadinović",
      "team": ""
    },
    {
      "r": "Beograd",
      "lat": 44.790722,
      "lon": 20.538194,
      "name": "Pijaca „Mirijevo“",
      "city": "Mirijevo",
      "leader": "Ivan Tadic",
      "team": ""
    },
    {
      "r": "Beograd",
      "lat": 44.785361,
      "lon": 20.496472,
      "name": "Crveni Park",
      "city": "Konjarnik",
      "leader": "Kristina Korać",
      "team": ""
    },
    {
      "r": "Beograd",
      "lat": 44.835639,
      "lon": 20.40925,
      "name": "Bulevar Mihajla Pupina",
      "city": "Novi Beograd",
      "leader": "Natalija",
      "team": "Stambena zgrada 205"
    },
    {
      "r": "Beograd",
      "lat": 44.834833,
      "lon": 20.415278,
      "name": "Retenzija",
      "city": "Zemun",
      "leader": "Nikola Gerasimoski",
      "team": ""
    },
    {
      "r": "Beograd",
      "lat": 44.661917,
      "lon": 20.508139,
      "name": "Železnička stanica Ripanj",
      "city": "Voždovac",
      "leader": "Borijan Sokovic",
      "team": ""
    },
    {
      "r": "Beograd",
      "lat": 44.751972,
      "lon": 20.407556,
      "name": "Bele Vode",
      "city": "Čukarica",
      "leader": "Tijana Turoman",
      "team": "Zbor Bele vode"
    },
    {
      "r": "Beograd",
      "lat": 44.855611,
      "lon": 20.380639,
      "name": "Park Gornji Grad",
      "city": "Zemun",
      "leader": "Milica Koprivica",
      "team": ""
    },
    {
      "r": "Beograd",
      "lat": 44.60975,
      "lon": 20.167528,
      "name": "Veliko polje",
      "city": "Obrenovac",
      "leader": "Milan Tomić",
      "team": ""
    },
    {
      "r": "Beograd",
      "lat": 44.812444,
      "lon": 20.4115,
      "name": "Blok 28",
      "city": "Novi Beograd",
      "leader": "Bojan Džukovski",
      "team": ""
    },
    {
      "r": "Beograd",
      "lat": 44.851222,
      "lon": 20.473556,
      "name": "Kotež",
      "city": "Kotež",
      "leader": "Vladimir Minić",
      "team": ""
    },
    {
      "r": "Beograd",
      "lat": 44.817472,
      "lon": 20.544167,
      "name": "Visnjicka Banja – Spasićeva poljana",
      "city": "Visnjicka banja",
      "leader": "Marina Kharkova",
      "team": ""
    },
    {
      "r": "Beograd",
      "lat": 44.811861,
      "lon": 20.475694,
      "name": "Knez Danilova 12-14",
      "city": "Beograd",
      "leader": "Vera Parezanović",
      "team": ""
    },
    {
      "r": "Beograd",
      "lat": 44.790583,
      "lon": 20.489139,
      "name": "Grčića Milenka 46 – Pašino brdo",
      "city": "Beograd",
      "leader": "Branka Kecic",
      "team": ""
    },
    {
      "r": "Beograd",
      "lat": 44.731167,
      "lon": 20.482278,
      "name": "Jajinci",
      "city": "Voždovac",
      "leader": "Jelena Banac",
      "team": ""
    },
    {
      "r": "Beograd",
      "lat": 44.800139,
      "lon": 20.373417,
      "name": "Blok 61 – jug kod vrtića „Istok“",
      "city": "Novi Beograd",
      "leader": "Mirjana Perović",
      "team": ""
    },
    {
      "r": "Beograd",
      "lat": 44.867917,
      "lon": 20.382778,
      "name": "Ispod Pupinovog mosta – Borčanska strana",
      "city": "Zemun",
      "leader": "Suzana Milenkovic",
      "team": ""
    },
    {
      "r": "Beograd",
      "lat": 44.612361,
      "lon": 20.286556,
      "name": "Jasenak",
      "city": "Jasenak",
      "leader": "Petar Stanić",
      "team": ""
    },
    {
      "r": "Beograd",
      "lat": 44.832444,
      "lon": 20.407917,
      "name": "Otona Župančića 32V",
      "city": "Novi Beograd",
      "leader": "Miloš Čejović",
      "team": ""
    },
    {
      "r": "Beograd",
      "lat": 44.712111,
      "lon": 20.464306,
      "name": "Avala grad",
      "city": "Resnik",
      "leader": "Snežana Kovačević",
      "team": ""
    },
    {
      "r": "Beograd",
      "lat": 44.87725,
      "lon": 20.453361,
      "name": "Park centar 3",
      "city": "Borča",
      "leader": "Marina G",
      "team": ""
    },
    {
      "r": "Beograd",
      "lat": 44.834333,
      "lon": 20.411111,
      "name": "Retenzija blok 9B",
      "city": "Zemun",
      "leader": "Vladimir Atanasoski",
      "team": ""
    },
    {
      "r": "Beograd",
      "lat": 44.842722,
      "lon": 20.35975,
      "name": "Park „Dobanovački put“",
      "city": "Altina",
      "leader": "Ljiljana Zivkovic",
      "team": ""
    },
    {
      "r": "Beograd",
      "lat": 44.784333,
      "lon": 20.419,
      "name": "Plato u Dobrinovićevoj",
      "city": "Banovo Brdo",
      "leader": "Milena Živanović",
      "team": ""
    },
    {
      "r": "Beograd",
      "lat": 44.760583,
      "lon": 20.624333,
      "name": "Nikole Pašića",
      "city": "Vinča",
      "leader": "Tanja Obradovic",
      "team": ""
    },
    {
      "r": "Beograd",
      "lat": 44.84075,
      "lon": 20.409778,
      "name": "Zemunski park – O.Š. „Majka Jugovića“",
      "city": "Zemun",
      "leader": "Aleksandar Pešić",
      "team": ""
    },
    {
      "r": "Beograd",
      "lat": 44.821611,
      "lon": 20.470444,
      "name": "Ugao Mihizove i Hercega Stjepana",
      "city": "Dorćol",
      "leader": "Nataša Pantić",
      "team": "Zbor Stari Grad"
    },
    {
      "r": "Beograd",
      "lat": 44.766611,
      "lon": 20.495972,
      "name": "Spirit kafe bar",
      "city": "Voždovac",
      "leader": "Milena Grujic",
      "team": ""
    },
    {
      "r": "Beograd",
      "lat": 44.798194,
      "lon": 20.4185,
      "name": "Gorska Služba Spasavanja",
      "city": "Novi Beograd",
      "leader": "Marko Čalija",
      "team": ""
    },
    {
      "r": "Beograd",
      "lat": 44.659528,
      "lon": 20.202861,
      "name": "Kanal Kupinovac – Od mostića ka Novom groblju",
      "city": "Obrenovac",
      "leader": "Jovan Svojić",
      "team": ""
    },
    {
      "r": "Beograd",
      "lat": 44.734417,
      "lon": 20.60575,
      "name": "Bolečko groblje",
      "city": "Boleč",
      "leader": "Ivan Lukić",
      "team": ""
    },
    {
      "r": "Beograd",
      "lat": 44.823778,
      "lon": 20.402306,
      "name": "Blok 34",
      "city": "Novi Beograd",
      "leader": "Marko Stanojlovic",
      "team": ""
    },
    {
      "r": "Vojvodina",
      "lat": 45.564528,
      "lon": 19.636472,
      "name": "Vrbas",
      "city": "Vrbas",
      "leader": "Ratko Đurđevac",
      "team": "Ekološki pokret Vrbasa"
    },
    {
      "r": "Vojvodina",
      "lat": 45.168917,
      "lon": 19.983194,
      "name": "Banstol",
      "city": "Čortanovci",
      "leader": "Milica Mojicevic",
      "team": "Milica Mojicevic"
    },
    {
      "r": "Vojvodina",
      "lat": 45.232361,
      "lon": 19.824667,
      "name": "Šodroš",
      "city": "Novi Sad",
      "leader": "Volonterski Kolektiv Svako Dobro",
      "team": "Svako Dobro"
    },
    {
      "r": "Vojvodina",
      "lat": 44.724351,
      "lon": 20.980946,
      "name": "Kovin",
      "city": "Kovin",
      "leader": "Tijana Barbulović",
      "team": "Gimnazija i SSŠ „Branko Radičević“ Kovin"
    },
    {
      "r": "Vojvodina",
      "lat": 45.778861,
      "lon": 19.136083,
      "name": "Suncokretov put",
      "city": "Sombor",
      "leader": "Tomislav Palić",
      "team": "Lenija"
    },
    {
      "r": "Vojvodina",
      "lat": 45.210361,
      "lon": 19.769972,
      "name": "Rakovac",
      "city": "Rakovac",
      "leader": "Anamarija Petrović",
      "team": ""
    },
    {
      "r": "Vojvodina",
      "lat": 45.351389,
      "lon": 20.383528,
      "name": "Peskara",
      "city": "Zrenjanin",
      "leader": "Ljubica Stankovic",
      "team": ""
    },
    {
      "r": "Vojvodina",
      "lat": 45.017222,
      "lon": 20.967778,
      "name": "Sumski Mir",
      "city": "Devojacki Bunar",
      "leader": "Vojislav Babic",
      "team": ""
    },
    {
      "r": "Vojvodina",
      "lat": 45.225472,
      "lon": 19.858611,
      "name": "Sremska Kamenica",
      "city": "Sremska Kamenica",
      "leader": "Sandra Pjevac Vlasacevic",
      "team": ""
    },
    {
      "r": "Vojvodina",
      "lat": 45.111333,
      "lon": 21.309028,
      "name": "Livada pored brane na Mesiću",
      "city": "Vrsac",
      "leader": "Predrag Prtljaga",
      "team": ""
    },
    {
      "r": "Vojvodina",
      "lat": 45.260917,
      "lon": 19.819972,
      "name": "Detelinara – ABC samoposluga",
      "city": "Novi Sad",
      "leader": "Milica Ninić",
      "team": ""
    },
    {
      "r": "Vojvodina",
      "lat": 44.730028,
      "lon": 20.976861,
      "name": "Kovin",
      "city": "Kovin",
      "leader": "Vladimir Krivošić",
      "team": ""
    },
    {
      "r": "Vojvodina",
      "lat": 44.747778,
      "lon": 20.732361,
      "name": "Omoljica",
      "city": "Omoljica",
      "leader": "Milan Tomas",
      "team": ""
    },
    {
      "r": "Vojvodina",
      "lat": 45.043556,
      "lon": 20.429333,
      "name": "Opovo",
      "city": "Opovo",
      "leader": "Jovan Nećakov",
      "team": ""
    },
    {
      "r": "Vojvodina",
      "lat": 45.820694,
      "lon": 20.606583,
      "name": "Okolina bazena",
      "city": "Banatsko veliko selo",
      "leader": "Radomir Jevic",
      "team": ""
    },
    {
      "r": "Vojvodina",
      "lat": 45.228972,
      "lon": 21.123583,
      "name": "Školsko dvorište OŠ „Dositej Obradović“",
      "city": "Plandiste",
      "leader": "Tanja Grijaković",
      "team": ""
    },
    {
      "r": "Vojvodina",
      "lat": 45.247167,
      "lon": 19.883806,
      "name": "Park Zlatariceva",
      "city": "Petrovaradin",
      "leader": "Daniela Čikić",
      "team": ""
    },
    {
      "r": "Vojvodina",
      "lat": 45.24375,
      "lon": 19.845139,
      "name": "Igraliste",
      "city": "Novi Sad",
      "leader": "Anna Volkova",
      "team": ""
    },
    {
      "r": "Vojvodina",
      "lat": 46.099167,
      "lon": 19.65475,
      "name": "Subotica",
      "city": "Subotica",
      "leader": "Marina Smoženkova",
      "team": ""
    },
    {
      "r": "Vojvodina",
      "lat": 45.267083,
      "lon": 19.840278,
      "name": "Igralište Karađorđeva-Koste Šokice",
      "city": "Novi Sad",
      "leader": "Dejan Jovanović",
      "team": ""
    },
    {
      "r": "Vojvodina",
      "lat": 44.934778,
      "lon": 20.225972,
      "name": "Nova Pazova",
      "city": "Nova Pazova",
      "leader": "Nikola Koldžić",
      "team": ""
    },
    {
      "r": "Vojvodina",
      "lat": 44.883972,
      "lon": 20.64625,
      "name": "Kotež 2 – sportski tereni",
      "city": "Pančevo",
      "leader": "Valentina Stanišić",
      "team": ""
    },
    {
      "r": "Vojvodina",
      "lat": 44.880278,
      "lon": 20.649361,
      "name": "Kotež 1",
      "city": "Pančevo",
      "leader": "Vladimir Božičković",
      "team": ""
    },
    {
      "r": "Vojvodina",
      "lat": 45.180611,
      "lon": 19.830444,
      "name": "Orlovo Bojiste",
      "city": "Fruska Gora",
      "leader": "Senka Bajić",
      "team": ""
    },
    {
      "r": "Vojvodina",
      "lat": 46.087972,
      "lon": 19.668694,
      "name": "Blaška Rajića",
      "city": "Subotica",
      "leader": "Attila Makai",
      "team": ""
    },
    {
      "r": "Vojvodina",
      "lat": 45.440389,
      "lon": 19.811889,
      "name": "Sirig",
      "city": "Temerin",
      "leader": "Srdjan Breznjak",
      "team": ""
    },
    {
      "r": "Vojvodina",
      "lat": 45.016222,
      "lon": 20.339833,
      "name": "Belegiš – priobalje",
      "city": "Belegiš",
      "leader": "Ranković Mihailo",
      "team": ""
    },
    {
      "r": "Vojvodina",
      "lat": 45.262028,
      "lon": 19.864583,
      "name": "Šodroš – Šonetova Rampa",
      "city": "Novi Sad",
      "leader": "Milutin Kokotović",
      "team": ""
    },
    {
      "r": "Vojvodina",
      "lat": 45.126583,
      "lon": 20.743861,
      "name": "Padina",
      "city": "Padina",
      "leader": "Božena Pavela Dišpiter",
      "team": ""
    },
    {
      "r": "Vojvodina",
      "lat": 45.245306,
      "lon": 19.836972,
      "name": "Lasla Gala – Vojvođanska",
      "city": "Novi Sad",
      "leader": "Slava Solonov",
      "team": ""
    },
    {
      "r": "Vojvodina",
      "lat": 45.211389,
      "lon": 20.032611,
      "name": "SRP „Koviljsko-petrovaradinski rit“",
      "city": "Kovilj",
      "leader": "Helena Jokić",
      "team": ""
    },
    {
      "r": "Vojvodina",
      "lat": 45.252806,
      "lon": 19.862111,
      "name": "Petrovaradinska Tvrđava",
      "city": "Petrovaradin",
      "leader": "Leon Šurbanović",
      "team": ""
    },
    {
      "r": "Vojvodina",
      "lat": 45.387806,
      "lon": 20.408833,
      "name": "Principova – kod mosta",
      "city": "Zrenjanin",
      "leader": "Milan Miljuš",
      "team": ""
    },
    {
      "r": "Vojvodina",
      "lat": 45.446972,
      "lon": 19.617639,
      "name": "Ugao Žarka Zrenjanina i Prvomajske",
      "city": "Ravno Selo",
      "leader": "Саша Мирковић",
      "team": ""
    },
    {
      "r": "Vojvodina",
      "lat": 45.123528,
      "lon": 20.726444,
      "name": "Horna Dolina",
      "city": "Padina",
      "leader": "Lidija Funćik",
      "team": ""
    },
    {
      "r": "Vojvodina",
      "lat": 45.069056,
      "lon": 20.59975,
      "name": "Debeljača – centar",
      "city": "Debeljača",
      "leader": "Marija Mraznić",
      "team": "„Malo selo velikog srca“ i „U službi prirode Debeljača“"
    },
    {
      "r": "Vojvodina",
      "lat": 45.349972,
      "lon": 19.720806,
      "name": "Kisački Park",
      "city": "Kisač",
      "leader": "Slavko Joković",
      "team": ""
    },
    {
      "r": "Vojvodina",
      "lat": 45.510417,
      "lon": 19.921417,
      "name": "Nadalj – raskrsnica",
      "city": "Nadalj",
      "leader": "Tošica Savkov",
      "team": ""
    },
    {
      "r": "Vojvodina",
      "lat": 44.988694,
      "lon": 20.797028,
      "name": "Igralište „Zelena Zona“",
      "city": "Banatsko Novo Selo",
      "leader": "Исидора Плејић",
      "team": ""
    },
    {
      "r": "Vojvodina",
      "lat": 45.232361,
      "lon": 19.824667,
      "name": "Šetalište Šodroš Staza",
      "city": "Novi Sad",
      "leader": "Jovana Damjanov",
      "team": ""
    },
    {
      "r": "Vojvodina",
      "lat": 45.822083,
      "lon": 20.440083,
      "name": "Teren u Ivana Jakšića",
      "city": "Kikinda",
      "leader": "Marijana Nadj",
      "team": ""
    },
    {
      "r": "Vojvodina",
      "lat": 45.324389,
      "lon": 20.066389,
      "name": "Djurdjevo – centar",
      "city": "Djurdjevo",
      "leader": "Anita Bečkerečki",
      "team": ""
    },
    {
      "r": "Vojvodina",
      "lat": 45.255944,
      "lon": 19.825333,
      "name": "Fudbalski teren „Marko Majstorović“",
      "city": "Novi Sad",
      "leader": "Filip Savic",
      "team": ""
    },
    {
      "r": "Vojvodina",
      "lat": 45.829056,
      "lon": 20.447917,
      "name": "Igraliste Kolibri",
      "city": "Kikinda",
      "leader": "Stanislav Šegrt",
      "team": ""
    },
    {
      "r": "Vojvodina",
      "lat": 45.264528,
      "lon": 19.825083,
      "name": "Železnički park",
      "city": "Novi Sad",
      "leader": "Radoslava Milošev",
      "team": "Zbor Omladinski pokret"
    },
    {
      "r": "Vojvodina",
      "lat": 45.071222,
      "lon": 20.324861,
      "name": "Surduk – Centar",
      "city": "Surduk",
      "leader": "Petar Antonijevic",
      "team": "Ekološko ribolovačka revolucija podunavlja"
    },
    {
      "r": "Vojvodina",
      "lat": 45.262778,
      "lon": 19.830111,
      "name": "Bulevar Oslobodjena 8-10 – Dvorište",
      "city": "Novi Sad",
      "leader": "Svetlana Stojkovic",
      "team": ""
    },
    {
      "r": "Vojvodina",
      "lat": 45.570556,
      "lon": 19.639528,
      "name": "Vrtić „Bubica“ i igralište pored",
      "city": "Vrbas",
      "leader": "Una Barovic",
      "team": ""
    },
    {
      "r": "Vojvodina",
      "lat": 45.381694,
      "lon": 20.384083,
      "name": "Jezero 3 – Most na suvom",
      "city": "Zrenjanin",
      "leader": "Zorica Čordašić",
      "team": ""
    },
    {
      "r": "Vojvodina",
      "lat": 44.908944,
      "lon": 19.967389,
      "name": "Pećinci – centar",
      "city": "Pećinci",
      "leader": "Branislava Ilic",
      "team": ""
    },
    {
      "r": "Vojvodina",
      "lat": 45.560361,
      "lon": 19.401,
      "name": "Bazen",
      "city": "Ruski Krstur",
      "leader": "Martina Sepinski",
      "team": ""
    },
    {
      "r": "Vojvodina",
      "lat": 44.858694,
      "lon": 20.638083,
      "name": "Kej",
      "city": "Pančevo",
      "leader": "Srđan Stamenković",
      "team": ""
    },
    {
      "r": "Vojvodina",
      "lat": 45.608111,
      "lon": 20.055694,
      "name": "Reka Tisa – Priobalje",
      "city": "Bečej",
      "leader": "Alisa Svetozar Bajić",
      "team": ""
    },
    {
      "r": "Vojvodina",
      "lat": 45.297361,
      "lon": 19.739056,
      "name": "Igralište u ulici Cara Lazara",
      "city": "Rumenka",
      "leader": "Jelena KČ",
      "team": ""
    },
    {
      "r": "Vojvodina",
      "lat": 45.205,
      "lon": 20.299722,
      "name": "Autobuska stanica",
      "city": "Titel",
      "leader": "Aleksandra Kolak",
      "team": ""
    },
    {
      "r": "Vojvodina",
      "lat": 45.577611,
      "lon": 19.627972,
      "name": "ugao Oktobarske i Maršala Tita",
      "city": "Vrbas",
      "leader": "Andrijana Djurkovic",
      "team": ""
    },
    {
      "r": "Vojvodina",
      "lat": 45.735333,
      "lon": 19.116306,
      "name": "Sombor – Prevodnica",
      "city": "Sombor",
      "leader": "Jasna Stričević",
      "team": ""
    },
    {
      "r": "Vojvodina",
      "lat": 45.740306,
      "lon": 19.11725,
      "name": "Sombor – Izletište Tromeđa",
      "city": "Sombor",
      "leader": "Sanja Petrović",
      "team": ""
    },
    {
      "r": "Vojvodina",
      "lat": 45.781167,
      "lon": 19.120278,
      "name": "Sombor – Prnjavor",
      "city": "Sombor",
      "leader": "Milana Došen",
      "team": ""
    },
    {
      "r": "Vojvodina",
      "lat": 45.765056,
      "lon": 19.121833,
      "name": "Sombor – Staparski put",
      "city": "Sombor",
      "leader": "Boris Golub",
      "team": ""
    },
    {
      "r": "Vojvodina",
      "lat": 45.240167,
      "lon": 19.838028,
      "name": "Liman 3 – Šekspirova – Limanski Park",
      "city": "Novi Sad",
      "leader": "Kristina Vila",
      "team": ""
    },
    {
      "r": "Vojvodina",
      "lat": 45.25025,
      "lon": 19.754194,
      "name": "Omladinska",
      "city": "Veternik",
      "leader": "Bobana Gogić",
      "team": ""
    },
    {
      "r": "Vojvodina",
      "lat": 45.510944,
      "lon": 19.270028,
      "name": "Pomocni stadion FK Teskstila",
      "city": "Odzaci",
      "leader": "Danijela Ćuk",
      "team": ""
    },
    {
      "r": "Vojvodina",
      "lat": 45.278306,
      "lon": 19.833361,
      "name": "Kej Dunav-Tisa-Dunav",
      "city": "Novi Sad",
      "leader": "Marko Ačanski",
      "team": ""
    },
    {
      "r": "Vojvodina",
      "lat": 45.400889,
      "lon": 19.883833,
      "name": "Temerin",
      "city": "Temerin",
      "leader": "Marija Ković",
      "team": ""
    },
    {
      "r": "Vojvodina",
      "lat": 44.999472,
      "lon": 19.628083,
      "name": "Dimitrija Davidovića",
      "city": "Sremska Mitrovica",
      "leader": "Dragana Čavlović",
      "team": ""
    },
    {
      "r": "Vojvodina",
      "lat": 45.264472,
      "lon": 19.814667,
      "name": "Detelinara – Đul bašta",
      "city": "Novi Sad",
      "leader": "Đorđe Milić",
      "team": ""
    },
    {
      "r": "Vojvodina",
      "lat": 45.755583,
      "lon": 19.116083,
      "name": "Park Obilaznica",
      "city": "Sombor",
      "leader": "Natalija Turudija",
      "team": ""
    },
    {
      "r": "Vojvodina",
      "lat": 45.242167,
      "lon": 19.837861,
      "name": "Šekspirova",
      "city": "Novi Sad",
      "leader": "Ekaterina Tolkaćeva",
      "team": ""
    },
    {
      "r": "Vojvodina",
      "lat": 44.998333,
      "lon": 20.172861,
      "name": "Put za Petrović Salaš",
      "city": "Stara Pazova",
      "leader": "Ksenija Dopuđa",
      "team": ""
    },
    {
      "r": "Vojvodina",
      "lat": 45.002861,
      "lon": 20.165611,
      "name": "Stara put za Sase ka deponiji",
      "city": "Stara Pazova",
      "leader": "Stanislava Babin",
      "team": ""
    },
    {
      "r": "Vojvodina",
      "lat": 45.270528,
      "lon": 20.613083,
      "name": "Obala Reke Tamiš – RAj za ribolovce",
      "city": "Tomaševac",
      "leader": "Maja Gajić",
      "team": "Čuvari Tamiša"
    },
    {
      "r": "Vojvodina",
      "lat": 46.051472,
      "lon": 20.101778,
      "name": "Industrijska Zona – Novi Kneževac",
      "city": "Novi Kneževac",
      "leader": "Bogdan Koledin",
      "team": "Eko centar ,,Tisa“ Novi Kneževac"
    },
    {
      "r": "Vojvodina",
      "lat": 45.241917,
      "lon": 19.854611,
      "name": "Bećarac",
      "city": "Novi Sad",
      "leader": "Renata Skrbic",
      "team": ""
    },
    {
      "r": "Vojvodina",
      "lat": 45.232806,
      "lon": 19.736861,
      "name": "Plaža VOK",
      "city": "Futog",
      "leader": "Dusan Orlovic",
      "team": ""
    },
    {
      "r": "Vojvodina",
      "lat": 44.953194,
      "lon": 20.227361,
      "name": "Obod Bagremove sume u ataru",
      "city": "Nova Pazova",
      "leader": "Milić Radusinović",
      "team": ""
    },
    {
      "r": "Vojvodina",
      "lat": 45.250139,
      "lon": 19.778444,
      "name": "Dragoslava Srejovica",
      "city": "Veternik",
      "leader": "Andrea Čičić",
      "team": ""
    },
    {
      "r": "Vojvodina",
      "lat": 45.242472,
      "lon": 19.800806,
      "name": "Telepski park i PIPI igraliste",
      "city": "Novi Sad",
      "leader": "Miona Šiket",
      "team": ""
    },
    {
      "r": "Vojvodina",
      "lat": 44.950556,
      "lon": 20.287806,
      "name": "Kod Medius Supermarketa",
      "city": "Novi Banovci",
      "leader": "Miloš Stanojković",
      "team": ""
    },
    {
      "r": "Vojvodina",
      "lat": 44.769861,
      "lon": 20.975444,
      "name": "Ulaz na pistu",
      "city": "Kovin",
      "leader": "Mateja Čičić",
      "team": ""
    },
    {
      "r": "Vojvodina",
      "lat": 45.401278,
      "lon": 19.091361,
      "name": "Jezero Provala",
      "city": "Bač",
      "leader": "Kalman Kristian",
      "team": ""
    },
    {
      "r": "Vojvodina",
      "lat": 45.541833,
      "lon": 19.791417,
      "name": "Parking kod obale – ulica Vladike Nikolaja Velimirovica",
      "city": "Srbobran",
      "leader": "Dorina Kusli",
      "team": ""
    },
    {
      "r": "Vojvodina",
      "lat": 45.272833,
      "lon": 20.364,
      "name": "Kanal Bager od ulaza u selo",
      "city": "Belo Blato",
      "leader": "Miroslav Hanjik",
      "team": ""
    },
    {
      "r": "Vojvodina",
      "lat": 45.136083,
      "lon": 21.328444,
      "name": "Mali Rit",
      "city": "Vršac",
      "leader": "Mirjana Ivljanin",
      "team": ""
    },
    {
      "r": "Vojvodina",
      "lat": 45.145611,
      "lon": 19.246111,
      "name": "Kod Mamine kafane",
      "city": "Šid",
      "leader": "Ivan Nanić",
      "team": ""
    },
    {
      "r": "Vojvodina",
      "lat": 45.683972,
      "lon": 18.952694,
      "name": "Gradska plaža",
      "city": "Apatin",
      "leader": "Ljiljana Golceva",
      "team": ""
    },
    {
      "r": "Vojvodina",
      "lat": 45.933944,
      "lon": 20.394306,
      "name": "Ulica Arsenija Carnojevica",
      "city": "Mokrin",
      "leader": "Miloš Srbljin",
      "team": ""
    },
    {
      "r": "Vojvodina",
      "lat": 45.536944,
      "lon": 20.805556,
      "name": "Međa",
      "city": "Međa – Žitište",
      "leader": "Aleksey Tselishchev",
      "team": ""
    },
    {
      "r": "Vojvodina",
      "lat": 45.249083,
      "lon": 19.851056,
      "name": "Parking ispred vrtića „Vilenjak“",
      "city": "Novi Sad",
      "leader": "Matija Simurdić",
      "team": ""
    },
    {
      "r": "Vojvodina",
      "lat": 45.355833,
      "lon": 19.59875,
      "name": "Skolska igralista",
      "city": "Bački Petrovac",
      "leader": "Martin Krajčik",
      "team": ""
    },
    {
      "r": "Vojvodina",
      "lat": 44.862417,
      "lon": 20.66975,
      "name": "Igraliste iza zgrada Veljka Vlahovica 13-19",
      "city": "Pančevo",
      "leader": "Olivera Mandzulj",
      "team": ""
    },
    {
      "r": "Vojvodina",
      "lat": 45.262639,
      "lon": 19.830722,
      "name": "Bulevar Oslobodjena 8-10",
      "city": "Novi Sad",
      "leader": "Snezana Stupar",
      "team": ""
    },
    {
      "r": "Vojvodina",
      "lat": 45.934056,
      "lon": 20.412444,
      "name": "Dečije Igralište Mokrin",
      "city": "Mokrin",
      "leader": "Nenad Čavić",
      "team": ""
    },
    {
      "r": "Centralna Srbija",
      "lat": 43.975167,
      "lon": 21.260528,
      "name": "Jagodina",
      "city": "Jagodina",
      "leader": "Jelena Ilić",
      "team": "Jelena Ilić"
    },
    {
      "r": "Centralna Srbija",
      "lat": 43.792611,
      "lon": 21.185194,
      "name": "Sekurič",
      "city": "Rekovac",
      "leader": "Oliver Aleksić",
      "team": ""
    },
    {
      "r": "Centralna Srbija",
      "lat": 43.458167,
      "lon": 21.055639,
      "name": "Aleksandrovac – Gradski park",
      "city": "Aleksandrovac",
      "leader": "Katarina Zarkovic",
      "team": ""
    },
    {
      "r": "Centralna Srbija",
      "lat": 43.583583,
      "lon": 21.347417,
      "name": "Rasina",
      "city": "Krusevac",
      "leader": "Nenad Dimitrijević",
      "team": ""
    },
    {
      "r": "Centralna Srbija",
      "lat": 43.995389,
      "lon": 20.926583,
      "name": "Metino Brdo – Staza Josifa Pančića",
      "city": "Kragujevac",
      "leader": "Dejan Milošević",
      "team": ""
    },
    {
      "r": "Centralna Srbija",
      "lat": 43.52775,
      "lon": 21.349028,
      "name": "Modrica",
      "city": "Krusevac",
      "leader": "Tatjana Mihailović Mladenović",
      "team": ""
    },
    {
      "r": "Centralna Srbija",
      "lat": 43.497083,
      "lon": 21.376389,
      "name": "Ulazak u selo Sezemče",
      "city": "Krusevac",
      "leader": "Rade Vasković",
      "team": ""
    },
    {
      "r": "Centralna Srbija",
      "lat": 43.579972,
      "lon": 21.319444,
      "name": "Ugao Vojvode Putnika",
      "city": "Krusevac",
      "leader": "Jovanka Andric",
      "team": "Udruženje Sačuvajmo Bagdalu"
    },
    {
      "r": "Centralna Srbija",
      "lat": 43.585806,
      "lon": 21.320806,
      "name": "Lazareva Cesma",
      "city": "Krusevac",
      "leader": "Lidija Gvozdenović",
      "team": ""
    },
    {
      "r": "Centralna Srbija",
      "lat": 44.356194,
      "lon": 21.098083,
      "name": "Velika Morava",
      "city": "Velika Plana",
      "leader": "Marina Marković",
      "team": ""
    },
    {
      "r": "Centralna Srbija",
      "lat": 43.548083,
      "lon": 21.101639,
      "name": "Veluće – Vodenica Perčević",
      "city": "Trstenik",
      "leader": "Darko Perčević",
      "team": ""
    },
    {
      "r": "Centralna Srbija",
      "lat": 43.578056,
      "lon": 21.154361,
      "name": "Park kod Crkve Svetih Apostola",
      "city": "Stopanja",
      "leader": "Boža Nedić",
      "team": ""
    },
    {
      "r": "Centralna Srbija",
      "lat": 44.418194,
      "lon": 20.019556,
      "name": "Tvrdojevac",
      "city": "Tvrdojevac",
      "leader": "Milojko Rastisavljevic",
      "team": "Zbor Ub"
    },
    {
      "r": "Centralna Srbija",
      "lat": 43.934583,
      "lon": 21.370833,
      "name": "Gradski Trg",
      "city": "Ćuprija",
      "leader": "Filip Trailović",
      "team": ""
    },
    {
      "r": "Centralna Srbija",
      "lat": 44.358167,
      "lon": 21.096694,
      "name": "Obala Velike Morave",
      "city": "Velika Plana",
      "leader": "Marina Marković",
      "team": ""
    },
    {
      "r": "Centralna Srbija",
      "lat": 44.306528,
      "lon": 20.568556,
      "name": "Zaguan i Sportski centar “Šumadija“",
      "city": "Arandjelovac",
      "leader": "Mateja Vićentijević",
      "team": ""
    },
    {
      "r": "Centralna Srbija",
      "lat": 43.968,
      "lon": 21.264861,
      "name": "Crkva Svete Petke",
      "city": "Jagodina",
      "leader": "Marko Ignjatovic",
      "team": ""
    },
    {
      "r": "Centralna Srbija",
      "lat": 43.924361,
      "lon": 20.675611,
      "name": "Gružansko Jezero",
      "city": "Knić",
      "leader": "Nikola Agatonovic",
      "team": ""
    },
    {
      "r": "Centralna Srbija",
      "lat": 44.422833,
      "lon": 20.826194,
      "name": "Kušadak – jezero",
      "city": "Kušadak",
      "leader": "Ivan Mijatović",
      "team": ""
    },
    {
      "r": "Centralna Srbija",
      "lat": 44.226667,
      "lon": 21.231139,
      "name": "Selo Lukovica",
      "city": "Svilajnac",
      "leader": "Nenad Milenovic",
      "team": ""
    },
    {
      "r": "Centralna Srbija",
      "lat": 43.584611,
      "lon": 21.309194,
      "name": "Ugao Miletina Buna i Čankareva",
      "city": "Kruševac",
      "leader": "",
      "team": "Збор Крушевац"
    },
    {
      "r": "Centralna Srbija",
      "lat": 44.412611,
      "lon": 21.110222,
      "name": "Kafana Centar",
      "city": "Trnovče",
      "leader": "Andjelka Radovanovic",
      "team": ""
    },
    {
      "r": "Centralna Srbija",
      "lat": 44.433222,
      "lon": 20.879556,
      "name": "Autobuska stanica Azanja",
      "city": "Azanja",
      "leader": "Nina Živanovic",
      "team": ""
    },
    {
      "r": "Zapadna Srbija",
      "lat": 43.667667,
      "lon": 20.881028,
      "name": "Razlivak Novo Selo",
      "city": "Vrnjacka Banja",
      "leader": "Jovan Smolović",
      "team": ""
    },
    {
      "r": "Zapadna Srbija",
      "lat": 43.723694,
      "lon": 20.681389,
      "name": "Park Svetog Save",
      "city": "Kraljevo",
      "leader": "Olivera Vranić",
      "team": ""
    },
    {
      "r": "Zapadna Srbija",
      "lat": 44.369361,
      "lon": 19.109139,
      "name": "Royal Plaza",
      "city": "Mali Zvornik",
      "leader": "Miodrag Macura",
      "team": ""
    },
    {
      "r": "Zapadna Srbija",
      "lat": 44.471361,
      "lon": 19.490167,
      "name": "Zavlačko brdo",
      "city": "Zavlaka",
      "leader": "Katarina Marjanac",
      "team": ""
    },
    {
      "r": "Zapadna Srbija",
      "lat": 44.328694,
      "lon": 19.296222,
      "name": "Mačkov Kamen",
      "city": "Krupanj",
      "leader": "Nikola Stakić",
      "team": ""
    },
    {
      "r": "Zapadna Srbija",
      "lat": 44.053444,
      "lon": 19.969056,
      "name": "Skakavci",
      "city": "Kosjerić",
      "leader": "Zeljko Jakovljević",
      "team": ""
    },
    {
      "r": "Zapadna Srbija",
      "lat": 43.865889,
      "lon": 19.405556,
      "name": "Zaovinsko Jezero",
      "city": "Bajina Basta – Tara",
      "leader": "Vladimir Šašo",
      "team": ""
    },
    {
      "r": "Zapadna Srbija",
      "lat": 44.394333,
      "lon": 19.48075,
      "name": "Bela Crkva",
      "city": "Krupanj",
      "leader": "Dušan Žugić",
      "team": ""
    },
    {
      "r": "Zapadna Srbija",
      "lat": 44.406861,
      "lon": 19.34775,
      "name": "Cerova – okolina gradske deponije",
      "city": "Krupanj",
      "leader": "Katarina Trifunović",
      "team": ""
    },
    {
      "r": "Zapadna Srbija",
      "lat": 43.892417,
      "lon": 20.342056,
      "name": "Mila Ivkovića",
      "city": "Čačak",
      "leader": "Nevena Aleksić",
      "team": ""
    },
    {
      "r": "Zapadna Srbija",
      "lat": 43.891583,
      "lon": 20.35025,
      "name": "Trg Ustanka – centar grada",
      "city": "Čačak",
      "leader": "Goran Arsenijevic",
      "team": "Znanjem za Čačak"
    },
    {
      "r": "Zapadna Srbija",
      "lat": 44.224611,
      "lon": 20.23875,
      "name": "Autobuska stanica",
      "city": "Ljig",
      "leader": "Magdalena Marković",
      "team": ""
    },
    {
      "r": "Zapadna Srbija",
      "lat": 44.889306,
      "lon": 19.750417,
      "name": "Savski kej – Gomolava",
      "city": "Hrtkovci",
      "leader": "Miloš Đaković",
      "team": ""
    },
    {
      "r": "Zapadna Srbija",
      "lat": 43.866944,
      "lon": 20.370944,
      "name": "Plava Hala i Atenička reka",
      "city": "Čačak",
      "leader": "Ema Marušić",
      "team": ""
    },
    {
      "r": "Zapadna Srbija",
      "lat": 44.263194,
      "lon": 19.893333,
      "name": "Obala reke Gradac – Europrom dva cvancika",
      "city": "Valjevo",
      "leader": "Milija Jakić",
      "team": ""
    },
    {
      "r": "Zapadna Srbija",
      "lat": 43.62175,
      "lon": 20.905694,
      "name": "O.Š. „Piskavac“",
      "city": "Vrnjačka banja",
      "leader": "Лана Пажильцева",
      "team": ""
    },
    {
      "r": "Zapadna Srbija",
      "lat": 44.796861,
      "lon": 19.648556,
      "name": "Tabanovačka šljunkara",
      "city": "Šabac",
      "leader": "Jovana Cvetić",
      "team": ""
    },
    {
      "r": "Zapadna Srbija",
      "lat": 44.274972,
      "lon": 19.893861,
      "name": "Ljubostinja – O.Š. „Nada Purić“",
      "city": "Valjevo",
      "leader": "Filip Popovic",
      "team": ""
    },
    {
      "r": "Zapadna Srbija",
      "lat": 43.452,
      "lon": 19.815194,
      "name": "Šehovina",
      "city": "Nova Varos",
      "leader": "Erna Paljevac",
      "team": ""
    },
    {
      "r": "Zapadna Srbija",
      "lat": 44.302361,
      "lon": 19.968639,
      "name": "Popučke – Kanal pored puta",
      "city": "Valjevo",
      "leader": "Uroš Dimitrijević",
      "team": ""
    },
    {
      "r": "Istočna Srbija",
      "lat": 43.835444,
      "lon": 22.116194,
      "name": "Selo Planinica",
      "city": "Zajecar",
      "leader": "Ivana Zivkovic",
      "team": ""
    },
    {
      "r": "Istočna Srbija",
      "lat": 44.633,
      "lon": 21.186528,
      "name": "Opšta Bolnica",
      "city": "Požarevac",
      "leader": "Mitar Nikolić",
      "team": ""
    },
    {
      "r": "Istočna Srbija",
      "lat": 44.650556,
      "lon": 21.147639,
      "name": "O.Š. „Vuk Karadžić“ – Zabela",
      "city": "Požarevac",
      "leader": "Jelena Stević",
      "team": ""
    },
    {
      "r": "Istočna Srbija",
      "lat": 43.570611,
      "lon": 22.257139,
      "name": "Gradska pijaca",
      "city": "Knjaževac",
      "leader": "Tamara Milutinovic",
      "team": ""
    },
    {
      "r": "Istočna Srbija",
      "lat": 43.909833,
      "lon": 22.276333,
      "name": "Popova plaža",
      "city": "Zaječar",
      "leader": "Tamara Milanovic",
      "team": ""
    },
    {
      "r": "Istočna Srbija",
      "lat": 43.835444,
      "lon": 22.116194,
      "name": "Selo Planinica",
      "city": "Zajecar",
      "leader": "Ivana Zivkovic",
      "team": ""
    },
    {
      "r": "Istočna Srbija",
      "lat": 44.229,
      "lon": 22.523528,
      "name": "Park Cvećara",
      "city": "Negotin",
      "leader": "Maja Lepojevic",
      "team": ""
    },
    {
      "r": "Južna Srbija",
      "lat": 43.327,
      "lon": 21.916306,
      "name": "Pešački most Ilije Birčanina – Pantelejska strana",
      "city": "Niš",
      "leader": "Miljana Milojković",
      "team": ""
    },
    {
      "r": "Južna Srbija",
      "lat": 42.954352,
      "lon": 22.15244,
      "name": "Čarobna Dolina",
      "city": "Vlasotince",
      "leader": "Dragan Andjelkovic",
      "team": ""
    },
    {
      "r": "Južna Srbija",
      "lat": 43.326833,
      "lon": 21.903389,
      "name": "Nisavski kej kod mosta Mladosti",
      "city": "Niš",
      "leader": "Ivanka Sretkovic",
      "team": "Zbor Pantelej"
    },
    {
      "r": "Južna Srbija",
      "lat": 43.324778,
      "lon": 21.921611,
      "name": "Most Mediana",
      "city": "Niš",
      "leader": "Miona Anteljević",
      "team": "Zbor Medijana"
    },
    {
      "r": "Južna Srbija",
      "lat": 42.988556,
      "lon": 21.923083,
      "name": "Igraliste preko puta restoana Vidik 095",
      "city": "Leskovac",
      "leader": "Miljana Vučelić",
      "team": ""
    },
    {
      "r": "Južna Srbija",
      "lat": 43.300833,
      "lon": 21.402306,
      "name": "Zdravinje – Donje Zdravinje novi most",
      "city": "Zdravinje – Prokuplje",
      "leader": "Snezana Ilic",
      "team": ""
    },
    {
      "r": "Južna Srbija",
      "lat": 43.308889,
      "lon": 21.910278,
      "name": "Vagres City",
      "city": "Niš",
      "leader": "Petar Petković",
      "team": ""
    },
    {
      "r": "Južna Srbija",
      "lat": 43.301833,
      "lon": 20.891917,
      "name": "Brzeće",
      "city": "Brus",
      "leader": "Александар Милутиновић",
      "team": ""
    },
    {
      "r": "Južna Srbija",
      "lat": 43.498306,
      "lon": 21.1625,
      "name": "Laćisled",
      "city": "Aleksandrovac",
      "leader": "Kornelija Karajović",
      "team": ""
    },
    {
      "r": "Južna Srbija",
      "lat": 43.227278,
      "lon": 21.578806,
      "name": "Hisar",
      "city": "Prokuplje",
      "leader": "Dušan Vučetić",
      "team": ""
    },
    {
      "r": "Južna Srbija",
      "lat": 43.305417,
      "lon": 21.872528,
      "name": "Park „Bubanj“",
      "city": "Niš",
      "leader": "Сребрица Стојановић",
      "team": ""
    },
    {
      "r": "Južna Srbija",
      "lat": 43.386778,
      "lon": 22.140917,
      "name": "Selo Ribare",
      "city": "Svrljig",
      "leader": "Vladan Ver",
      "team": ""
    },
    {
      "r": "Južna Srbija",
      "lat": 42.46225,
      "lon": 21.770222,
      "name": "Gradski park",
      "city": "Bujanovac",
      "leader": "Snezana Milosevic",
      "team": ""
    },
    {
      "r": "Južna Srbija",
      "lat": 42.466556,
      "lon": 21.79775,
      "name": "Bujanovacka Banja",
      "city": "Bujanovac",
      "leader": "Lazar Stojančev",
      "team": ""
    }
  ]
}
